[
{
    "toyooka": {
        "name": "è±Šå²¡åœ°åŸŸ",
        "center": { "lat": 35.5456, "lng": 134.8203 },
        "icon": "ğŸ¢"
    },
    "izushi": {
        "name": "å‡ºçŸ³åœ°åŸŸ",
        "center": { "lat": 35.4621, "lng": 134.8743 },
        "icon": "ğŸ¯"
    },
    "kinosaki": {
        "name": "åŸå´åœ°åŸŸ",
        "center": { "lat": 35.6267, "lng": 134.8007 },
        "icon": "â™¨ï¸"
    },
    "tanto": {
        "name": "ä½†æ±åœ°åŸŸ",
        "center": { "lat": 35.4833, "lng": 134.9833 },
        "icon": "ğŸŒ¸"
    },
    "hidaka": {
        "name": "æ—¥é«˜åœ°åŸŸ",
        "center": { "lat": 35.5167, "lng": 134.7333 },
        "icon": "â›·ï¸"
    },
    "takeno": {
        "name": "ç«¹é‡åœ°åŸŸ",
        "center": { "lat": 35.6333, "lng": 134.7167 },
        "icon": "ğŸ–ï¸"
    }
}
]